BS12#22.60#-57#9.4#13.20##12:44:01
BS02#17.33#-59#9.4#7.93##12:44:03
BS04#17.57#-57#7.4#10.17##12:44:05
BS06#18.80#-59#9.4#9.40##12:44:07
BS08#23.10#-57#9.4#13.70##12:44:09
BS10#23.32#-57#6.6#16.72##12:44:11
BS12#22.85#-57#9.4#13.45##12:44:13
BS02#17.53#-59#9.4#8.13##12:44:15
BS04#16.94#-57#7.4#9.54##12:44:17
BS06#18.59#-59#9.4#9.19##12:44:19
BS08#23.05#-57#9.4#13.65##12:44:21
BS10#23.35#-57#6.6#16.75##12:44:23
BS12#22.59#-57#9.4#13.19##12:44:25
BS02#17.49#-59#9.4#8.09##12:44:27
BS04#17.98#-57#7.4#10.58##12:44:29
BS06#18.57#-59#9.4#9.17##12:44:31
BS08#22.80#-57#9.4#13.40##12:44:33
BS10#23.24#-57#6.6#16.64##12:44:35
BS12#22.78#-57#9.4#13.38##12:44:37
BS02#17.80#-59#9.4#8.40##12:44:39
BS04#17.89#-57#7.4#10.49##12:44:41
BS06#18.81#-59#9.4#9.41##12:44:43
BS08#23.05#-57#9.4#13.65##12:44:45
BS10#23.28#-57#6.6#16.68##12:44:48
BS12#23.09#-57#9.4#13.69##12:44:50
BS02#17.58#-59#9.4#8.18##12:44:52
BS04#17.75#-57#7.4#10.35##12:44:54
BS06#18.48#-59#9.4#9.08##12:44:56
BS08#23.06#-57#9.4#13.66##12:44:58
BS10#23.18#-57#6.6#16.58##12:45:00
BS12#22.58#-57#9.4#13.18##12:45:02
BS02#17.37#-59#9.4#7.97##12:45:04
BS04#17.57#-57#7.4#10.17##12:45:06
BS06#18.67#-59#9.4#9.27##12:45:08
BS08#23.12#-57#9.4#13.72##12:45:10
BS10#23.16#-57#6.6#16.56##12:45:12
BS12#22.62#-57#9.4#13.22##12:45:14
BS02#17.36#-59#9.4#7.96##12:45:16
BS04#17.06#-57#7.4#9.66##12:45:18
BS06#18.82#-59#9.4#9.42##12:45:20
BS08#23.22#-57#9.4#13.82##12:45:22
BS10#23.36#-57#6.6#16.76##12:45:24
BS12#22.68#-57#9.4#13.28##12:45:26
BS02#17.49#-59#9.4#8.09##12:45:28
BS04#17.76#-57#7.4#10.36##12:45:30
BS06#18.69#-59#9.4#9.29##12:45:32
BS08#23.03#-57#9.4#13.63##12:45:34
BS10#23.02#-57#6.6#16.42##12:45:36
BS12#22.77#-57#9.4#13.37##12:45:38
BS02#17.59#-59#9.4#8.19##12:45:40
BS04#17.86#-57#7.4#10.46##12:45:42
BS06#18.63#-59#9.4#9.23##12:45:44
BS08#23.13#-57#9.4#13.73##12:45:46
BS10#23.18#-57#6.6#16.58##12:45:48
BS12#22.71#-57#9.4#13.31##12:45:50
BS02#17.40#-59#9.4#8.00##12:45:52
BS04#17.21#-57#7.4#9.81##12:45:54
BS06#18.51#-59#9.4#9.11##12:45:56
BS06#0.00#-120#9.4#-9.40#$GPRMC,173053.0,A,3731.723267,N,12652.266121,E,0.0,145.0,070517,6.1,W,A*16#02:30:53
BS08#0.00#-120#9.4#-9.40#$GPRMC,173055.0,A,3731.723760,N,12652.266689,E,0.0,145.0,070517,6.1,W,A*17#02:30:55
BS10#8.10#-58#6.6#1.50#$GPRMC,173057.0,A,3731.724148,N,12652.267077,E,0.0,145.0,070517,6.1,W,A*18#02:30:57
BS12#0.00#-120#9.4#-9.40#$GPRMC,173059.0,A,3731.724528,N,12652.267761,E,0.0,145.0,070517,6.1,W,A*14#02:30:59
BS02#0.00#-120#9.4#-9.40#$GPRMC,173101.0,A,3731.725089,N,12652.268231,E,0.0,145.0,070517,6.1,W,A*18#02:31:01
BS04#8.44#-57#7.4#1.04#$GPRMC,173103.0,A,3731.725452,N,12652.268342,E,0.0,145.0,070517,6.1,W,A*1D#02:31:03
BS06#0.00#-120#9.4#-9.40#$GPRMC,173105.0,A,3731.725507,N,12652.268438,E,0.0,145.0,070517,6.1,W,A*10#02:31:05
BS08#0.00#-120#9.4#-9.40#$GPRMC,173107.0,A,3731.725512,N,12652.268457,E,0.0,145.0,070517,6.1,W,A*1F#02:31:07
BS10#8.39#-58#6.6#1.79#$GPRMC,173109.0,A,3731.725503,N,12652.268465,E,0.0,145.0,070517,6.1,W,A*10#02:31:09
BS12#0.00#-120#9.4#-9.40#$GPRMC,173111.0,A,3731.725487,N,12652.268470,E,0.0,145.0,070517,6.1,W,A*10#02:31:11
BS02#0.00#-120#9.4#-9.40#$GPRMC,173113.0,A,3731.725470,N,12652.268471,E,0.0,145.0,070517,6.1,W,A*1B#02:31:13
BS04#8.14#-57#7.4#0.74#$GPRMC,173115.0,A,3731.725459,N,12652.268470,E,0.0,145.0,070517,6.1,W,A*17#02:31:15
BS06#0.00#-120#9.4#-9.40#$GPRMC,173117.0,A,3731.725454,N,12652.268470,E,0.0,145.0,070517,6.1,W,A*18#02:31:17
BS08#0.00#-120#9.4#-9.40#$GPRMC,173119.0,A,3731.725452,N,12652.268470,E,0.0,145.0,070517,6.1,W,A*10#02:31:19
BS10#8.26#-58#6.6#1.66#$GPRMC,173121.0,A,3731.725445,N,12652.268467,E,0.0,145.0,070517,6.1,W,A*1B#02:31:21
BS12#0.00#-120#9.4#-9.40#$GPRMC,173123.0,A,3731.725433,N,12652.268460,E,0.0,145.0,070517,6.1,W,A*1F#02:31:23
BS02#0.00#-120#9.4#-9.40#$GPRMC,173125.0,A,3731.725418,N,12652.268445,E,0.0,145.0,070517,6.1,W,A*17#02:31:25
BS04#8.63#-57#7.4#1.23#$GPRMC,173127.0,A,3731.725403,N,12652.268433,E,0.0,145.0,070517,6.1,W,A*1E#02:31:27
BS06#0.00#-120#9.4#-9.40#$GPRMC,173129.0,A,3731.725396,N,12652.268429,E,0.0,145.0,070517,6.1,W,A*10#02:31:30
BS08#0.00#-120#9.4#-9.40#$GPRMC,173131.0,A,3731.725400,N,12652.268433,E,0.0,145.0,070517,6.1,W,A*1A#02:31:32
BS10#8.18#-58#6.6#1.58#$GPRMC,173133.0,A,3731.725407,N,12652.268443,E,0.0,145.0,070517,6.1,W,A*18#02:31:34
BS12#0.00#-120#9.4#-9.40#$GPRMC,173135.0,A,3731.725405,N,12652.268454,E,0.0,145.0,070517,6.1,W,A*1A#02:31:36
BS02#0.00#-120#9.4#-9.40#$GPRMC,173137.0,A,3731.725399,N,12652.268466,E,0.0,145.0,070517,6.1,W,A*1B#02:31:38
BS04#8.41#-58#7.4#1.01#$GPRMC,173139.0,A,3731.725392,N,12652.268472,E,0.0,145.0,070517,6.1,W,A*1B#02:31:40
BS06#0.00#-120#9.4#-9.40#$GPRMC,173141.0,A,3731.725384,N,12652.268469,E,0.0,145.0,070517,6.1,W,A*19#02:31:42
BS08#0.00#-120#9.4#-9.40#$GPRMC,173143.0,A,3731.725378,N,12652.268466,E,0.0,145.0,070517,6.1,W,A*17#02:31:44
BS10#8.37#-58#6.6#1.77#$GPRMC,173145.0,A,3731.725390,N,12652.268468,E,0.0,145.0,070517,6.1,W,A*19#02:31:46
BS12#0.00#-120#9.4#-9.40#$GPRMC,173147.0,A,3731.725401,N,12652.268474,E,0.0,145.0,070517,6.1,W,A*19#02:31:48
BS02#0.00#-120#9.4#-9.40#$GPRMC,173149.0,A,3731.725402,N,12652.268476,E,0.0,145.0,070517,6.1,W,A*16#02:31:50
BS04#8.67#-58#7.4#1.27#$GPRMC,173151.0,A,3731.725401,N,12652.268478,E,0.0,145.0,070517,6.1,W,A*12#02:31:52
BS06#0.00#-120#9.4#-9.40#$GPRMC,173153.0,A,3731.725398,N,12652.268481,E,0.0,145.0,070517,6.1,W,A*11#02:31:54
BS08#0.00#-120#9.4#-9.40#$GPRMC,173155.0,A,3731.725392,N,12652.268483,E,0.0,145.0,070517,6.1,W,A*1F#02:31:56
BS10#8.16#-58#6.6#1.56#$GPRMC,173157.0,A,3731.725391,N,12652.268485,E,0.0,145.0,070517,6.1,W,A*18#02:31:58
BS12#0.00#-120#9.4#-9.40#$GPRMC,173159.0,A,3731.725406,N,12652.268498,E,0.0,145.0,070517,6.1,W,A*13#02:32:00
BS02#0.00#-120#9.4#-9.40#$GPRMC,173201.0,A,3731.725405,N,12652.268505,E,0.0,145.0,070517,6.1,W,A*1B#02:32:02
BS04#8.58#-58#7.4#1.18#$GPRMC,173203.0,A,3731.725406,N,12652.268510,E,0.0,145.0,070517,6.1,W,A*1E#02:32:04
BS06#0.00#-120#9.4#-9.40#$GPRMC,173205.0,A,3731.725404,N,12652.268520,E,0.0,145.0,070517,6.1,W,A*19#02:32:06
BS08#0.00#-120#9.4#-9.40#$GPRMC,173207.0,A,3731.725409,N,12652.268533,E,0.0,145.0,070517,6.1,W,A*14#02:32:08
BS10#8.04#-58#6.6#1.44#$GPRMC,173209.0,A,3731.725403,N,12652.268543,E,0.0,145.0,070517,6.1,W,A*17#02:32:10
BS12#0.00#-120#9.4#-9.40#$GPRMC,173211.0,A,3731.725393,N,12652.268551,E,0.0,145.0,070517,6.1,W,A*13#02:32:12
BS02#0.00#-120#9.4#-9.40#$GPRMC,173213.0,A,3731.725395,N,12652.268561,E,0.0,145.0,070517,6.1,W,A*14#02:32:14
