[2017-05-08 02:30:53] BS06,0.00,-120,9.4,-9.40,$GPRMC,173053.0,A,3731.723267,N,12652.266121,E,0.0,145.0,070517,6.1,W,A*16,02:30:53
[2017-05-08 02:30:55] BS08,0.00,-120,9.4,-9.40,$GPRMC,173055.0,A,3731.723760,N,12652.266689,E,0.0,145.0,070517,6.1,W,A*17,02:30:55
[2017-05-08 02:30:57] BS10,8.10,-58,6.6,1.50,$GPRMC,173057.0,A,3731.724148,N,12652.267077,E,0.0,145.0,070517,6.1,W,A*18,02:30:57
[2017-05-08 02:30:59] BS12,0.00,-120,9.4,-9.40,$GPRMC,173059.0,A,3731.724528,N,12652.267761,E,0.0,145.0,070517,6.1,W,A*14,02:30:59
[2017-05-08 02:31:01] BS02,0.00,-120,9.4,-9.40,$GPRMC,173101.0,A,3731.725089,N,12652.268231,E,0.0,145.0,070517,6.1,W,A*18,02:31:01
[2017-05-08 02:31:03] BS04,8.44,-57,7.4,1.04,$GPRMC,173103.0,A,3731.725452,N,12652.268342,E,0.0,145.0,070517,6.1,W,A*1D,02:31:03
[2017-05-08 02:31:05] BS06,0.00,-120,9.4,-9.40,$GPRMC,173105.0,A,3731.725507,N,12652.268438,E,0.0,145.0,070517,6.1,W,A*10,02:31:05
[2017-05-08 02:31:07] BS08,0.00,-120,9.4,-9.40,$GPRMC,173107.0,A,3731.725512,N,12652.268457,E,0.0,145.0,070517,6.1,W,A*1F,02:31:07
[2017-05-08 02:31:09] BS10,8.39,-58,6.6,1.79,$GPRMC,173109.0,A,3731.725503,N,12652.268465,E,0.0,145.0,070517,6.1,W,A*10,02:31:09
[2017-05-08 02:31:11] BS12,0.00,-120,9.4,-9.40,$GPRMC,173111.0,A,3731.725487,N,12652.268470,E,0.0,145.0,070517,6.1,W,A*10,02:31:11
[2017-05-08 02:31:13] BS02,0.00,-120,9.4,-9.40,$GPRMC,173113.0,A,3731.725470,N,12652.268471,E,0.0,145.0,070517,6.1,W,A*1B,02:31:13
[2017-05-08 02:31:15] BS04,8.14,-57,7.4,0.74,$GPRMC,173115.0,A,3731.725459,N,12652.268470,E,0.0,145.0,070517,6.1,W,A*17,02:31:15
[2017-05-08 02:31:17] BS06,0.00,-120,9.4,-9.40,$GPRMC,173117.0,A,3731.725454,N,12652.268470,E,0.0,145.0,070517,6.1,W,A*18,02:31:17
[2017-05-08 02:31:19] BS08,0.00,-120,9.4,-9.40,$GPRMC,173119.0,A,3731.725452,N,12652.268470,E,0.0,145.0,070517,6.1,W,A*10,02:31:19
[2017-05-08 02:31:21] BS10,8.26,-58,6.6,1.66,$GPRMC,173121.0,A,3731.725445,N,12652.268467,E,0.0,145.0,070517,6.1,W,A*1B,02:31:21
[2017-05-08 02:31:23] BS12,0.00,-120,9.4,-9.40,$GPRMC,173123.0,A,3731.725433,N,12652.268460,E,0.0,145.0,070517,6.1,W,A*1F,02:31:23
[2017-05-08 02:31:25] BS02,0.00,-120,9.4,-9.40,$GPRMC,173125.0,A,3731.725418,N,12652.268445,E,0.0,145.0,070517,6.1,W,A*17,02:31:25
[2017-05-08 02:31:27] BS04,8.63,-57,7.4,1.23,$GPRMC,173127.0,A,3731.725403,N,12652.268433,E,0.0,145.0,070517,6.1,W,A*1E,02:31:27
[2017-05-08 02:31:30] BS06,0.00,-120,9.4,-9.40,$GPRMC,173129.0,A,3731.725396,N,12652.268429,E,0.0,145.0,070517,6.1,W,A*10,02:31:30
[2017-05-08 02:31:32] BS08,0.00,-120,9.4,-9.40,$GPRMC,173131.0,A,3731.725400,N,12652.268433,E,0.0,145.0,070517,6.1,W,A*1A,02:31:32
[2017-05-08 02:31:34] BS10,8.18,-58,6.6,1.58,$GPRMC,173133.0,A,3731.725407,N,12652.268443,E,0.0,145.0,070517,6.1,W,A*18,02:31:34
[2017-05-08 02:31:36] BS12,0.00,-120,9.4,-9.40,$GPRMC,173135.0,A,3731.725405,N,12652.268454,E,0.0,145.0,070517,6.1,W,A*1A,02:31:36
[2017-05-08 02:31:38] BS02,0.00,-120,9.4,-9.40,$GPRMC,173137.0,A,3731.725399,N,12652.268466,E,0.0,145.0,070517,6.1,W,A*1B,02:31:38
[2017-05-08 02:31:40] BS04,8.41,-58,7.4,1.01,$GPRMC,173139.0,A,3731.725392,N,12652.268472,E,0.0,145.0,070517,6.1,W,A*1B,02:31:40
[2017-05-08 02:31:42] BS06,0.00,-120,9.4,-9.40,$GPRMC,173141.0,A,3731.725384,N,12652.268469,E,0.0,145.0,070517,6.1,W,A*19,02:31:42
[2017-05-08 02:31:44] BS08,0.00,-120,9.4,-9.40,$GPRMC,173143.0,A,3731.725378,N,12652.268466,E,0.0,145.0,070517,6.1,W,A*17,02:31:44
[2017-05-08 02:31:46] BS10,8.37,-58,6.6,1.77,$GPRMC,173145.0,A,3731.725390,N,12652.268468,E,0.0,145.0,070517,6.1,W,A*19,02:31:46
[2017-05-08 02:31:48] BS12,0.00,-120,9.4,-9.40,$GPRMC,173147.0,A,3731.725401,N,12652.268474,E,0.0,145.0,070517,6.1,W,A*19,02:31:48
[2017-05-08 02:31:50] BS02,0.00,-120,9.4,-9.40,$GPRMC,173149.0,A,3731.725402,N,12652.268476,E,0.0,145.0,070517,6.1,W,A*16,02:31:50
[2017-05-08 02:31:52] BS04,8.67,-58,7.4,1.27,$GPRMC,173151.0,A,3731.725401,N,12652.268478,E,0.0,145.0,070517,6.1,W,A*12,02:31:52
[2017-05-08 02:31:54] BS06,0.00,-120,9.4,-9.40,$GPRMC,173153.0,A,3731.725398,N,12652.268481,E,0.0,145.0,070517,6.1,W,A*11,02:31:54
[2017-05-08 02:31:56] BS08,0.00,-120,9.4,-9.40,$GPRMC,173155.0,A,3731.725392,N,12652.268483,E,0.0,145.0,070517,6.1,W,A*1F,02:31:56
[2017-05-08 02:31:58] BS10,8.16,-58,6.6,1.56,$GPRMC,173157.0,A,3731.725391,N,12652.268485,E,0.0,145.0,070517,6.1,W,A*18,02:31:58
[2017-05-08 02:32:00] BS12,0.00,-120,9.4,-9.40,$GPRMC,173159.0,A,3731.725406,N,12652.268498,E,0.0,145.0,070517,6.1,W,A*13,02:32:00
[2017-05-08 02:32:02] BS02,0.00,-120,9.4,-9.40,$GPRMC,173201.0,A,3731.725405,N,12652.268505,E,0.0,145.0,070517,6.1,W,A*1B,02:32:02
[2017-05-08 02:32:04] BS04,8.58,-58,7.4,1.18,$GPRMC,173203.0,A,3731.725406,N,12652.268510,E,0.0,145.0,070517,6.1,W,A*1E,02:32:04
[2017-05-08 02:32:06] BS06,0.00,-120,9.4,-9.40,$GPRMC,173205.0,A,3731.725404,N,12652.268520,E,0.0,145.0,070517,6.1,W,A*19,02:32:06
[2017-05-08 02:32:08] BS08,0.00,-120,9.4,-9.40,$GPRMC,173207.0,A,3731.725409,N,12652.268533,E,0.0,145.0,070517,6.1,W,A*14,02:32:08
[2017-05-08 02:32:10] BS10,8.04,-58,6.6,1.44,$GPRMC,173209.0,A,3731.725403,N,12652.268543,E,0.0,145.0,070517,6.1,W,A*17,02:32:10
[2017-05-08 02:32:12] BS12,0.00,-120,9.4,-9.40,$GPRMC,173211.0,A,3731.725393,N,12652.268551,E,0.0,145.0,070517,6.1,W,A*13,02:32:12
[2017-05-08 02:32:14] BS02,0.00,-120,9.4,-9.40,$GPRMC,173213.0,A,3731.725395,N,12652.268561,E,0.0,145.0,070517,6.1,W,A*14,02:32:14
